{
  "ICAOS": [
    {
      "ICAO": "KJFK",
      "name": "John F Kennedy Intl",
      "city": "New York",
      "lat": 40.63975,
      "lon": -73.77892,
      "distance_in_miles": 0,
      "TZ": "America/New_York"
    },
    {
      "ICAO": "KIDL",
      "name": "Idlewild Intl",
      "city": "New York",
      "lat": 40.63975,
      "lon": -73.77892,
      "distance_in_miles": 0,
      "TZ": "America/New_York"
    },
    {
      "ICAO": "KLGA",
      "name": "La Guardia",
      "city": "New York",
      "lat": 40.777245,
      "lon": -73.872604,
      "distance_in_miles": 10.5,
      "TZ": "America/New_York"
    },
    {
      "ICAO": "NONE",
      "name": "East 34th Street Heliport",
      "city": "New York",
      "lat": 40.7425,
      "lon": -73.97195,
      "distance_in_miles": 13.5,
      "TZ": "America/New_York"
    },
    {
      "ICAO": "NK39",
      "name": "One Police Plaza Heliport",
      "city": "New York",
      "lat": 40.7126,
      "lon": -73.9996,
      "distance_in_miles": 15.5,
      "TZ": "America/New_York"
    },
    {
      "ICAO": "KJRB",
      "name": "Wall Street Heliport",
      "city": "New York",
      "lat": 40.701214,
      "lon": -74.009026,
      "distance_in_miles": 16.5,
      "TZ": "America/New_York"
    },
    {
      "ICAO": "KJRA",
      "name": "West 30th St. Heliport",
      "city": "New York",
      "lat": 40.7545,
      "lon": -74.0071,
      "distance_in_miles": 16.5,
      "TZ": "America/New_York"
    },
    {
      "ICAO": "EIDW",
      "name": "Dublin",
      "city": "Dublin",
      "lat": 53.421333,
      "lon": -6.270075,
      "distance_in_miles": 0,
      "TZ": "Europe/Dublin"
    },
    {
      "ICAO": "EIWT",
      "name": "Weston Airport",
      "city": "Leixlip",
      "lat": 53.351334,
      "lon": -6.4875,
      "distance_in_miles": 12.5,
      "TZ": "Europe/Dublin"
    },
    {
      "ICAO": "EIME",
      "name": "Casement",
      "city": "Casement",
      "lat": 53.301666,
      "lon": -6.451333,
      "distance_in_miles": 15.5,
      "TZ": "Europe/Dublin"
    },
    {
      "ICAO": "KLAX",
      "name": "Los Angeles Intl",
      "city": "Los Angeles",
      "lat": 33.942535,
      "lon": -118.40807,
      "distance_in_miles": 0,
      "TZ": "America/Los_Angeles"
    },
    {
      "ICAO": "KHHR",
      "name": "Jack Northrop Fld Hawthorne Muni",
      "city": "Hawthorne",
      "lat": 33.92284,
      "lon": -118.33518,
      "distance_in_miles": 4.5,
      "TZ": "America/Los_Angeles"
    },
    {
      "ICAO": "KSMO",
      "name": "Santa Monica Municipal Airport",
      "city": "Santa Monica",
      "lat": 34.015835,
      "lon": -118.45131,
      "distance_in_miles": 8.5,
      "TZ": "America/Los_Angeles"
    },
    {
      "ICAO": "KTOA",
      "name": "Zamperini Field Airport",
      "city": "Torrance",
      "lat": 33.80339,
      "lon": -118.33961,
      "distance_in_miles": 12.5,
      "TZ": "America/Los_Angeles"
    }
  ]
}